{
  "keyword": "哪吒仙饮",
  "timestamp": "2025-12-05T10:33:06.897Z",
  "totalCount": 125,
  "regionBreakdown": [
    {
      "region": "北京市",
      "count": 12
    },
    {
      "region": "天津市",
      "count": 15
    },
    {
      "region": "河北省",
      "count": 1
    },
    {
      "region": "山西省",
      "count": 1
    },
    {
      "region": "内蒙古自治区",
      "count": 2
    },
    {
      "region": "辽宁省",
      "count": 1
    },
    {
      "region": "吉林省",
      "count": 3
    },
    {
      "region": "黑龙江省",
      "count": 1
    },
    {
      "region": "上海市",
      "count": 1
    },
    {
      "region": "江苏省",
      "count": 11
    },
    {
      "region": "浙江省",
      "count": 1
    },
    {
      "region": "安徽省",
      "count": 0
    },
    {
      "region": "福建省",
      "count": 10
    },
    {
      "region": "江西省",
      "count": 1
    },
    {
      "region": "山东省",
      "count": 0
    },
    {
      "region": "河南省",
      "count": 0
    },
    {
      "region": "湖北省",
      "count": 2
    },
    {
      "region": "湖南省",
      "count": 2
    },
    {
      "region": "广东省",
      "count": 4
    },
    {
      "region": "广西壮族自治区",
      "count": 0
    },
    {
      "region": "海南省",
      "count": 4
    },
    {
      "region": "重庆市",
      "count": 32
    },
    {
      "region": "四川省",
      "count": 8
    },
    {
      "region": "贵州省",
      "count": 0
    },
    {
      "region": "云南省",
      "count": 1
    },
    {
      "region": "西藏自治区",
      "count": 1
    },
    {
      "region": "陕西省",
      "count": 0
    },
    {
      "region": "甘肃省",
      "count": 0
    },
    {
      "region": "青海省",
      "count": 1
    },
    {
      "region": "宁夏回族自治区",
      "count": 3
    },
    {
      "region": "新疆维吾尔自治区",
      "count": 0
    },
    {
      "region": "香港特别行政区",
      "count": 1
    },
    {
      "region": "澳门特别行政区",
      "count": 3
    },
    {
      "region": "台湾省",
      "count": 3
    }
  ],
  "pois": [
    {
      "parent": "",
      "address": "东柏街时代国际嘉园5号楼106商铺",
      "distance": "",
      "pcode": "110000",
      "adcode": "110105",
      "pname": "北京市",
      "cityname": "北京市",
      "type": "餐饮服务;中餐厅;中餐厅",
      "typecode": "050100",
      "adname": "朝阳区",
      "citycode": "010",
      "name": "火哪吒川式烧烤(双井店)",
      "location": "116.464903,39.895169",
      "id": "B0GDDCV4GG"
    },
    {
      "parent": "B0FFFAI054",
      "address": "海淀大街天使大厦2层203",
      "distance": "",
      "pcode": "110000",
      "adcode": "110108",
      "pname": "北京市",
      "cityname": "北京市",
      "type": "体育休闲服务;运动场馆;运动场所",
      "typecode": "080100",
      "adname": "海淀区",
      "citycode": "010",
      "name": "哪吒格斗(天使大厦店)",
      "location": "116.307468,39.982645",
      "id": "B0IKP71Y6S"
    },
    {
      "parent": "",
      "address": "云岗路商业街汽A座二层",
      "distance": "",
      "pcode": "110000",
      "adcode": "110106",
      "pname": "北京市",
      "cityname": "北京市",
      "type": "餐饮服务;中餐厅;四川菜(川菜)",
      "typecode": "050102",
      "adname": "丰台区",
      "citycode": "010",
      "name": "火哪吒川式烧烤(云岗店)",
      "location": "116.178649,39.804092",
      "id": "B0JU576BR6"
    },
    {
      "parent": "",
      "address": "将台西路与芳园南街交叉口东200米",
      "distance": "",
      "pcode": "110000",
      "adcode": "110105",
      "pname": "北京市",
      "cityname": "北京市",
      "type": "体育休闲服务;运动场馆;综合体育馆",
      "typecode": "080101",
      "adname": "朝阳区",
      "citycode": "010",
      "name": "哪吒运动馆",
      "location": "116.484919,39.970591",
      "id": "B0LRNLLIC9"
    },
    {
      "parent": "",
      "address": "凤展公寓西侧130米",
      "distance": "",
      "pcode": "110000",
      "adcode": "110105",
      "pname": "北京市",
      "cityname": "北京市",
      "type": "餐饮服务;中餐厅;中餐厅",
      "typecode": "050100",
      "adname": "朝阳区",
      "citycode": "010",
      "name": "哪吒串吧",
      "location": "116.635822,39.973566",
      "id": "B0LADC9H78"
    },
    {
      "parent": "",
      "address": "小屯路甲10号107四川烧烤川菜小吃附近夜宵的烧烤店",
      "distance": "",
      "pcode": "110000",
      "adcode": "110106",
      "pname": "北京市",
      "cityname": "北京市",
      "type": "餐饮服务;中餐厅;中餐厅",
      "typecode": "050100",
      "adname": "丰台区",
      "citycode": "010",
      "name": "火哪吒·川式烧烤(大成路店)",
      "location": "116.256960,39.888838",
      "id": "B0FFJCF3WW"
    },
    {
      "parent": "",
      "address": "东环北路1号",
      "distance": "",
      "pcode": "110000",
      "adcode": "110115",
      "pname": "北京市",
      "cityname": "北京市",
      "type": "汽车服务;汽车服务相关;汽车服务相关|汽车销售;汽车销售;汽车销售",
      "typecode": "010000|020000",
      "adname": "大兴区",
      "citycode": "010",
      "name": "哪吒汽车用户中心(亦庄店)",
      "location": "116.507872,39.813643",
      "id": "B0LGSH6H9S"
    },
    {
      "parent": "",
      "address": "德茂街15号院18栋一层南-12",
      "distance": "",
      "pcode": "110000",
      "adcode": "110115",
      "pname": "北京市",
      "cityname": "北京市",
      "type": "餐饮服务;中餐厅;特色/地方风味餐厅",
      "typecode": "050118",
      "adname": "大兴区",
      "citycode": "010",
      "name": "哪吒水饺",
      "location": "116.443946,39.772203",
      "id": "B0LDRLHL9O"
    },
    {
      "parent": "",
      "address": "东高村镇南埝头西路37号院",
      "distance": "",
      "pcode": "110000",
      "adcode": "110117",
      "pname": "北京市",
      "cityname": "北京市",
      "type": "汽车销售;汽车销售;汽车销售|汽车维修;汽车维修;汽车维修",
      "typecode": "020000|030000",
      "adname": "平谷区",
      "citycode": "010",
      "name": "哪吒汽车",
      "location": "117.113632,40.115851",
      "id": "B0G3YSV4NZ"
    },
    {
      "parent": "",
      "address": "中铁二局北京潮白河治理工程9标项目部斜对面",
      "distance": "",
      "pcode": "110000",
      "adcode": "110112",
      "pname": "北京市",
      "cityname": "北京市",
      "type": "餐饮服务;餐饮相关场所;餐饮相关",
      "typecode": "050000",
      "adname": "通州区",
      "citycode": "010",
      "name": "哪吒烧烤",
      "location": "116.909984,39.805821",
      "id": "B0LG1H10CD"
    },
    {
      "parent": "",
      "address": "通礼路15号",
      "distance": "",
      "pcode": "110000",
      "adcode": "110113",
      "pname": "北京市",
      "cityname": "北京市",
      "type": "公司企业;农林牧渔基地;其它农林牧渔基地",
      "typecode": "170400",
      "adname": "顺义区",
      "citycode": "010",
      "name": "哪吒小菜园(共享农场)",
      "location": "116.707390,40.179636",
      "id": "B0LGTHYG4S"
    },
    {
      "parent": "",
      "address": "良乡拱辰南大街拱辰1954文创园内",
      "distance": "",
      "pcode": "110000",
      "adcode": "110111",
      "pname": "北京市",
      "cityname": "北京市",
      "type": "科教文化服务;培训机构;培训机构",
      "typecode": "141400",
      "adname": "房山区",
      "citycode": "010",
      "name": "哪吒归来青少儿运动中心",
      "location": "116.140436,39.728761",
      "id": "B0JU496X6Q"
    },
    {
      "parent": "",
      "address": "赤峰道93号二楼103室(营口道地铁站A口步行370米)",
      "distance": "",
      "pcode": "120000",
      "adcode": "120101",
      "pname": "天津市",
      "cityname": "天津市",
      "type": "餐饮服务;冷饮店;冷饮店",
      "typecode": "050700",
      "adname": "和平区",
      "citycode": "022",
      "name": "御药仙饮",
      "location": "117.200871,39.122182",
      "id": "B0K2LLOZKT"
    },
    {
      "parent": "B0FFFZ0DZC",
      "address": "津滨大道160号红星国际广场F2层",
      "distance": "",
      "pcode": "120000",
      "adcode": "120102",
      "pname": "天津市",
      "cityname": "天津市",
      "type": "餐饮服务;中餐厅;中餐厅",
      "typecode": "050100",
      "adname": "河东区",
      "citycode": "022",
      "name": "哪吒食堂(红星国际广场店)",
      "location": "117.253031,39.120795",
      "id": "B0KB21Q04N"
    },
    {
      "parent": "",
      "address": "怒江道8号哪吒小镇西广场",
      "distance": "",
      "pcode": "120000",
      "adcode": "120103",
      "pname": "天津市",
      "cityname": "天津市",
      "type": "餐饮服务;中餐厅;中餐厅",
      "typecode": "050100",
      "adname": "河西区",
      "citycode": "022",
      "name": "哪吒焰餐厅",
      "location": "117.252940,39.073520",
      "id": "B0LDSR3FXD"
    },
    {
      "parent": "B001607QWN",
      "address": "万峰路与万德庄大街交口东南角同安里",
      "distance": "",
      "pcode": "120000",
      "adcode": "120104",
      "pname": "天津市",
      "cityname": "天津市",
      "type": "餐饮服务;中餐厅;中餐厅",
      "typecode": "050100",
      "adname": "南开区",
      "citycode": "022",
      "name": "哪吒食堂(万德庄店)",
      "location": "117.173539,39.120308",
      "id": "B0K64KJR1V"
    },
    {
      "parent": "",
      "address": "郁江道13号",
      "distance": "",
      "pcode": "120000",
      "adcode": "120103",
      "pname": "天津市",
      "cityname": "天津市",
      "type": "商务住宅;产业园区;产业园区",
      "typecode": "120100",
      "adname": "河西区",
      "citycode": "022",
      "name": "哪吒小镇",
      "location": "117.254452,39.073962",
      "id": "B0J6KH6ZZG"
    },
    {
      "parent": "",
      "address": "郁江道13号哪吒小镇园区内11-01",
      "distance": "",
      "pcode": "120000",
      "adcode": "120103",
      "pname": "天津市",
      "cityname": "天津市",
      "type": "体育休闲服务;体育休闲服务场所;体育休闲服务场所",
      "typecode": "080000",
      "adname": "河西区",
      "citycode": "022",
      "name": "哪吒滑板公园(哪吒小镇店)",
      "location": "117.254344,39.074368",
      "id": "B0K2H5K0LD"
    },
    {
      "parent": "",
      "address": "凌宾路与红旗南路辅路交叉口北360米",
      "distance": "",
      "pcode": "120000",
      "adcode": "120104",
      "pname": "天津市",
      "cityname": "天津市",
      "type": "购物服务;购物相关场所;购物相关场所",
      "typecode": "060000",
      "adname": "南开区",
      "citycode": "022",
      "name": "哪吒FASHION SHOP(奥城商业广场店)",
      "location": "117.171549,39.075955",
      "id": "B0KBRUL7TV"
    },
    {
      "parent": "",
      "address": "渤海银行女排",
      "distance": "",
      "pcode": "120000",
      "adcode": "120104",
      "pname": "天津市",
      "cityname": "天津市",
      "type": "体育休闲服务;运动场馆;运动场所",
      "typecode": "080100",
      "adname": "南开区",
      "citycode": "022",
      "name": "哪吒排球俱乐部",
      "location": "117.170511,39.096778",
      "id": "B0JRCY58OV"
    },
    {
      "parent": "",
      "address": "汾河南道与汀江路交叉口东北140米",
      "distance": "",
      "pcode": "120000",
      "adcode": "120113",
      "pname": "天津市",
      "cityname": "天津市",
      "type": "生活服务;生活服务场所;生活服务场所",
      "typecode": "070000",
      "adname": "北辰区",
      "citycode": "022",
      "name": "哪吒售后(北辰店)",
      "location": "117.203505,39.215075",
      "id": "B0LR5DATFE"
    },
    {
      "parent": "",
      "address": "怒江道8号哪吒小镇21-207",
      "distance": "",
      "pcode": "120000",
      "adcode": "120103",
      "pname": "天津市",
      "cityname": "天津市",
      "type": "购物服务;购物相关场所;购物相关场所",
      "typecode": "060000",
      "adname": "河西区",
      "citycode": "022",
      "name": "哪吒无人机",
      "location": "117.255669,39.073276",
      "id": "B0LDZZN7P8"
    },
    {
      "parent": "",
      "address": "大寺开发区储华道7号",
      "distance": "",
      "pcode": "120000",
      "adcode": "120111",
      "pname": "天津市",
      "cityname": "天津市",
      "type": "汽车销售;汽车销售;汽车销售|汽车维修;汽车维修;汽车维修",
      "typecode": "020000|030000",
      "adname": "西青区",
      "citycode": "022",
      "name": "哪吒汽车天津中津(天津大寺汽配用品城店)",
      "location": "117.273199,38.999031",
      "id": "B0FFJRYCPT"
    },
    {
      "parent": "",
      "address": "环河北路与环河西路交叉口西140米",
      "distance": "",
      "pcode": "120000",
      "adcode": "120110",
      "pname": "天津市",
      "cityname": "天津市",
      "type": "汽车维修;汽车维修;汽车维修|汽车销售;汽车销售;汽车销售",
      "typecode": "030000|020000",
      "adname": "东丽区",
      "citycode": "022",
      "name": "哪吒售后(空港店)",
      "location": "117.362996,39.159424",
      "id": "B0L14B0DX7"
    },
    {
      "parent": "",
      "address": "郁江道与玛钢路交叉口西160米",
      "distance": "",
      "pcode": "120000",
      "adcode": "120103",
      "pname": "天津市",
      "cityname": "天津市",
      "type": "交通设施服务;停车场;路边停车场",
      "typecode": "150906",
      "adname": "河西区",
      "citycode": "022",
      "name": "哪吒小镇停车场",
      "location": "117.255102,39.075287",
      "id": "B0FFGI1A1D"
    },
    {
      "parent": "B0FFF73MZR",
      "address": "北塘经济区E3总部湾中关村辽宁石油化工大学滨海研究院C5栋",
      "distance": "",
      "pcode": "120000",
      "adcode": "120116",
      "pname": "天津市",
      "cityname": "天津市",
      "type": "生活服务;摄影冲印店;摄影冲印",
      "typecode": "071300",
      "adname": "滨海新区",
      "citycode": "022",
      "name": "哪吒图文工厂",
      "location": "117.712827,39.106148",
      "id": "B0KDOKQ5L2"
    },
    {
      "parent": "",
      "address": "储华道与泽恩路交叉口东160米",
      "distance": "",
      "pcode": "120000",
      "adcode": "120111",
      "pname": "天津市",
      "cityname": "天津市",
      "type": "汽车服务;汽车服务相关;汽车服务相关",
      "typecode": "010000",
      "adname": "西青区",
      "citycode": "022",
      "name": "哪吒汽车服务中心",
      "location": "117.272663,38.998105",
      "id": "B0LG54ZL0Y"
    },
    {
      "parent": "B0FFM7PTM0",
      "address": "安肃镇仁兴路星空明月城底商火尖枪1-3",
      "distance": "",
      "pcode": "130000",
      "adcode": "130609",
      "pname": "河北省",
      "cityname": "保定市",
      "type": "餐饮服务;冷饮店;冷饮店",
      "typecode": "050700",
      "adname": "徐水区",
      "citycode": "0312",
      "name": "火尖枪",
      "location": "115.648297,38.999767",
      "id": "B0KA2HEJHI"
    },
    {
      "parent": "",
      "address": "上寺街5号",
      "distance": "",
      "pcode": "140000",
      "adcode": "140423",
      "pname": "山西省",
      "cityname": "长治市",
      "type": "餐饮服务;餐饮相关场所;餐饮相关",
      "typecode": "050000",
      "adname": "襄垣县",
      "citycode": "0355",
      "name": "火尖枪哪吒仙饮",
      "location": "113.051908,36.529692",
      "id": "B0J3JUWZGE"
    },
    {
      "parent": "",
      "address": "海拉尔西路116号",
      "distance": "",
      "pcode": "150000",
      "adcode": "150103",
      "pname": "内蒙古自治区",
      "cityname": "呼和浩特市",
      "type": "汽车销售;汽车销售;汽车销售",
      "typecode": "020000",
      "adname": "回民区",
      "citycode": "0471",
      "name": "内蒙古华菱丰哪吒汽车",
      "location": "111.617162,40.823288",
      "id": "B0JBP96DWC"
    },
    {
      "parent": "B0FFHP74SJ",
      "address": "电缆厂小区西南门国大药房旁",
      "distance": "",
      "pcode": "150000",
      "adcode": "150105",
      "pname": "内蒙古自治区",
      "cityname": "呼和浩特市",
      "type": "购物服务;购物相关场所;购物相关场所",
      "typecode": "060000",
      "adname": "赛罕区",
      "citycode": "0471",
      "name": "哪吒的家宠物零食烘焙(电缆厂小区店)",
      "location": "111.718657,40.824686",
      "id": "B0KA7M12H1"
    },
    {
      "parent": "B019C01FDD",
      "address": "海州大街23号大和购物广场F1层",
      "distance": "",
      "pcode": "210000",
      "adcode": "210381",
      "pname": "辽宁省",
      "cityname": "鞍山市",
      "type": "购物服务;服装鞋帽皮具店;服装鞋帽皮具店",
      "typecode": "061100",
      "adname": "海城市",
      "citycode": "0412",
      "name": "哪吒鞋店",
      "location": "122.748919,40.860062",
      "id": "B0HR0ZV39G"
    },
    {
      "parent": "",
      "address": "青年路与新月路辅路交叉口西北160米",
      "distance": "",
      "pcode": "220000",
      "adcode": "220103",
      "pname": "吉林省",
      "cityname": "长春市",
      "type": "体育休闲服务;休闲场所;游乐场",
      "typecode": "080501",
      "adname": "宽城区",
      "citycode": "0431",
      "name": "哪吒欢乐城堡",
      "location": "125.292825,43.938525",
      "id": "B0LUD62GW9"
    },
    {
      "parent": "",
      "address": "桂林胡同与丰顺西胡同交叉口东20米",
      "distance": "",
      "pcode": "220000",
      "adcode": "220104",
      "pname": "吉林省",
      "cityname": "长春市",
      "type": "餐饮服务;中餐厅;中餐厅",
      "typecode": "050100",
      "adname": "朝阳区",
      "citycode": "0431",
      "name": "小哪吒全牛宴",
      "location": "125.323356,43.866420",
      "id": "B0LU7MXBHO"
    },
    {
      "parent": "",
      "address": "卡伦湖街道万晟康城二期31栋楼105、106门市",
      "distance": "",
      "pcode": "220000",
      "adcode": "220113",
      "pname": "吉林省",
      "cityname": "长春市",
      "type": "体育休闲服务;娱乐场所;网吧",
      "typecode": "080308",
      "adname": "九台区",
      "citycode": "0431",
      "name": "哪吒电竞",
      "location": "125.538152,44.022139",
      "id": "B0LRNCKZ7A"
    },
    {
      "parent": "",
      "address": "龙江路与向阳大街交叉口西北40米",
      "distance": "",
      "pcode": "230000",
      "adcode": "230206",
      "pname": "黑龙江省",
      "cityname": "齐齐哈尔市",
      "type": "餐饮服务;中餐厅;中餐厅",
      "typecode": "050100",
      "adname": "富拉尔基区",
      "citycode": "0452",
      "name": "火尖枪哪吒仙饮",
      "location": "123.649271,47.201134",
      "id": "B0K6X728LD"
    },
    {
      "parent": "B0FFLCHO8V",
      "address": "朱家角镇课植园路339弄11号101室",
      "distance": "",
      "pcode": "310000",
      "adcode": "310118",
      "pname": "上海市",
      "cityname": "上海市",
      "type": "餐饮服务;冷饮店;冷饮店",
      "typecode": "050700",
      "adname": "青浦区",
      "citycode": "021",
      "name": "哪吒仙饮(暂停营业)",
      "location": "121.058163,31.113904",
      "id": "B0LRORX1OE"
    },
    {
      "parent": "B0FFH1MJBT",
      "address": "溧城街道南大街199号万达广场1F1060号商铺",
      "distance": "",
      "pcode": "320000",
      "adcode": "320481",
      "pname": "江苏省",
      "cityname": "常州市",
      "type": "汽车销售;汽车销售;汽车销售|汽车维修;汽车维修;汽车维修",
      "typecode": "020000|030000",
      "adname": "溧阳市",
      "citycode": "0519",
      "name": "哪咤汽车(万达广场南大街店)",
      "location": "119.493120,31.401953",
      "id": "B0H129CWKS"
    },
    {
      "parent": "",
      "address": "光辉灯具市场5号门旁",
      "distance": "",
      "pcode": "320000",
      "adcode": "320404",
      "pname": "江苏省",
      "cityname": "常州市",
      "type": "生活服务;物流速递;物流速递",
      "typecode": "070500",
      "adname": "钟楼区",
      "citycode": "0519",
      "name": "哪吒速递",
      "location": "119.841689,31.799828",
      "id": "B0IB959BLA"
    },
    {
      "parent": "",
      "address": "龙城大道辅路与新庆路交叉口东南180米",
      "distance": "",
      "pcode": "320000",
      "adcode": "320404",
      "pname": "江苏省",
      "cityname": "常州市",
      "type": "汽车维修;汽车维修;汽车维修",
      "typecode": "030000",
      "adname": "钟楼区",
      "citycode": "0519",
      "name": "哪吒汽车用户中心",
      "location": "119.914981,31.829206",
      "id": "B0KD5RSSJQ"
    },
    {
      "parent": "",
      "address": "澄杨路与璜大立交交叉口北180米",
      "distance": "",
      "pcode": "320000",
      "adcode": "320281",
      "pname": "江苏省",
      "cityname": "无锡市",
      "type": "汽车销售;汽车销售;汽车销售",
      "typecode": "020000",
      "adname": "江阴市",
      "citycode": "0510",
      "name": "哪吒汽车江阴万隆店",
      "location": "120.307874,31.889036",
      "id": "B0J2HKQXU4"
    },
    {
      "parent": "",
      "address": "东方东路2号",
      "distance": "",
      "pcode": "320000",
      "adcode": "320412",
      "pname": "江苏省",
      "cityname": "常州市",
      "type": "汽车销售;汽车销售;汽车销售",
      "typecode": "020000",
      "adname": "武进区",
      "citycode": "0519",
      "name": "哪吒汽车城市服务中心",
      "location": "120.094625,31.759483",
      "id": "B0J6CHKBH6"
    },
    {
      "parent": "B01FE16WWD",
      "address": "盛岸西路331号百乐广场1层",
      "distance": "",
      "pcode": "320000",
      "adcode": "320206",
      "pname": "江苏省",
      "cityname": "无锡市",
      "type": "汽车销售;汽车销售;汽车销售|汽车维修;汽车维修;汽车维修",
      "typecode": "020000|030000",
      "adname": "惠山区",
      "citycode": "0510",
      "name": "哪吒汽车(百乐广场店)",
      "location": "120.242163,31.607450",
      "id": "B0H1CU4SI2"
    },
    {
      "parent": "B01FE0K1P7",
      "address": "神州国际广场",
      "distance": "",
      "pcode": "320000",
      "adcode": "320213",
      "pname": "江苏省",
      "cityname": "无锡市",
      "type": "汽车销售;汽车销售;汽车销售",
      "typecode": "020000",
      "adname": "梁溪区",
      "citycode": "0510",
      "name": "哪吒汽车无锡神州专营店(神州国际店)",
      "location": "120.286950,31.612270",
      "id": "B0J6G7RYG5"
    },
    {
      "parent": "",
      "address": "新阳路与金城东路交叉口西南200米",
      "distance": "",
      "pcode": "320000",
      "adcode": "320214",
      "pname": "江苏省",
      "cityname": "无锡市",
      "type": "汽车服务;汽车服务相关;汽车服务相关",
      "typecode": "010000",
      "adname": "新吴区",
      "citycode": "0510",
      "name": "哪咤汽车用户中心",
      "location": "120.409328,31.562696",
      "id": "B0J1JKG8RI"
    },
    {
      "parent": "",
      "address": "白金汉爵大酒店东北1门西南60米",
      "distance": "",
      "pcode": "320000",
      "adcode": "320213",
      "pname": "江苏省",
      "cityname": "无锡市",
      "type": "餐饮服务;中餐厅;火锅店",
      "typecode": "050117",
      "adname": "梁溪区",
      "citycode": "0510",
      "name": "哪吒捞海·海鲜火锅(无锡白金汉爵店)",
      "location": "120.246165,31.607086",
      "id": "B0HBMKKOWY"
    },
    {
      "parent": "",
      "address": "金城东路299号五洲国际工业博览城297栋1348号",
      "distance": "",
      "pcode": "320000",
      "adcode": "320214",
      "pname": "江苏省",
      "cityname": "无锡市",
      "type": "汽车销售;汽车销售;汽车销售",
      "typecode": "020000",
      "adname": "新吴区",
      "citycode": "0510",
      "name": "哪吒汽车(无锡宝驰用户中心)",
      "location": "120.404556,31.566788",
      "id": "B0J375FQNE"
    },
    {
      "parent": "",
      "address": "康庄大道118号",
      "distance": "",
      "pcode": "320000",
      "adcode": "320404",
      "pname": "江苏省",
      "cityname": "常州市",
      "type": "生活服务;物流速递;物流速递",
      "typecode": "070500",
      "adname": "钟楼区",
      "citycode": "0519",
      "name": "哪吒快递(中州物流)",
      "location": "119.855693,31.808447",
      "id": "B0JALCBLUB"
    },
    {
      "parent": "",
      "address": "哪吒仙饮(天工艺苑店)",
      "distance": "0",
      "adcode": "330102",
      "name": "浙江省杭州市上城区哪吒仙饮(天工艺苑店)",
      "location": "120.177915,30.250184"
    },
    {
      "parent": "B0FFK0TU6N",
      "address": "建坂新苑2号楼13-14号店面",
      "distance": "",
      "pcode": "350000",
      "adcode": "350105",
      "pname": "福建省",
      "cityname": "福州市",
      "type": "餐饮服务;餐饮相关场所;餐饮相关",
      "typecode": "050000",
      "adname": "马尾区",
      "citycode": "0591",
      "name": "哪吒地摊牛骨牛排",
      "location": "119.395588,26.025289",
      "id": "B0LAG5UAL4"
    },
    {
      "parent": "",
      "address": "盖山镇则徐大道631号闽丰汽车广场内",
      "distance": "",
      "pcode": "350000",
      "adcode": "350104",
      "pname": "福建省",
      "cityname": "福州市",
      "type": "汽车销售;汽车销售;汽车销售|汽车维修;汽车维修;汽车维修",
      "typecode": "020000|030000",
      "adname": "仓山区",
      "citycode": "0591",
      "name": "哪吒汽车福州三丰用户中心",
      "location": "119.347890,26.015166",
      "id": "B0GKYUJ1GL"
    },
    {
      "parent": "",
      "address": "104国道与林森大道交叉口东300米",
      "distance": "",
      "pcode": "350000",
      "adcode": "350121",
      "pname": "福建省",
      "cityname": "福州市",
      "type": "公司企业;公司;公司",
      "typecode": "170200",
      "adname": "闽侯县",
      "citycode": "0591",
      "name": "小哪吒供应链",
      "location": "119.349242,25.944349",
      "id": "B0JB1SGYW5"
    },
    {
      "parent": "",
      "address": "尚干镇祥通路6号",
      "distance": "",
      "pcode": "350000",
      "adcode": "350121",
      "pname": "福建省",
      "cityname": "福州市",
      "type": "汽车销售;汽车销售;汽车销售",
      "typecode": "020000",
      "adname": "闽侯县",
      "citycode": "0591",
      "name": "哪吒汽车用户中心",
      "location": "119.384993,25.917143",
      "id": "B0IDZA55QS"
    },
    {
      "parent": "",
      "address": "城南镇古溪村西路北二弄",
      "distance": "",
      "pcode": "350000",
      "adcode": "350902",
      "pname": "福建省",
      "cityname": "宁德市",
      "type": "科教文化服务;文化宫;文化宫",
      "typecode": "140800",
      "adname": "蕉城区",
      "citycode": "0593",
      "name": "哪咤文化宫",
      "location": "119.543265,26.643743",
      "id": "B0FFHS69QM"
    },
    {
      "parent": "B0FFG263FO",
      "address": "金源滨海商务中心",
      "distance": "",
      "pcode": "350000",
      "adcode": "350123",
      "pname": "福建省",
      "cityname": "福州市",
      "type": "餐饮服务;中餐厅;特色/地方风味餐厅",
      "typecode": "050118",
      "adname": "罗源县",
      "citycode": "0591",
      "name": "哪吒烧烤",
      "location": "119.597025,26.468725",
      "id": "B0LU2MV562"
    },
    {
      "parent": "",
      "address": "俊杰良园北门旁",
      "distance": "",
      "pcode": "350000",
      "adcode": "350902",
      "pname": "福建省",
      "cityname": "宁德市",
      "type": "汽车销售;汽车销售;汽车销售|汽车维修;汽车维修;汽车维修",
      "typecode": "020000|030000",
      "adname": "蕉城区",
      "citycode": "0593",
      "name": "宁德哪吒汽车4S店(宁川南路店)",
      "location": "119.539521,26.645668",
      "id": "B0G1LA74GW"
    },
    {
      "parent": "",
      "address": "古溪村西路北2弄8号",
      "distance": "",
      "pcode": "350000",
      "adcode": "350902",
      "pname": "福建省",
      "cityname": "宁德市",
      "type": "风景名胜;风景名胜;寺庙道观",
      "typecode": "110205",
      "adname": "蕉城区",
      "citycode": "0593",
      "name": "哪吒宫",
      "location": "119.543264,26.643762",
      "id": "B02510PDGC"
    },
    {
      "parent": "",
      "address": "古溪村附近",
      "distance": "",
      "pcode": "350000",
      "adcode": "350902",
      "pname": "福建省",
      "cityname": "宁德市",
      "type": "风景名胜;风景名胜;风景名胜",
      "typecode": "110200",
      "adname": "蕉城区",
      "citycode": "0593",
      "name": "哪吒文化宫",
      "location": "119.545629,26.644954",
      "id": "B0KUFC9GG0"
    },
    {
      "parent": "",
      "address": "中湖村银华新庄56号",
      "distance": "",
      "pcode": "350000",
      "adcode": "350128",
      "pname": "福建省",
      "cityname": "福州市",
      "type": "汽车服务;汽车租赁;汽车租赁",
      "typecode": "010900",
      "adname": "平潭县",
      "citycode": "0591",
      "name": "哪吒汽车租赁(平潭)",
      "location": "119.779800,25.495321",
      "id": "B0LGT7ZP9T"
    },
    {
      "parent": "B0FFGEGPIT",
      "address": "南水街道办村坊安置区88号一楼店铺",
      "distance": "",
      "pcode": "360000",
      "adcode": "360703",
      "pname": "江西省",
      "cityname": "赣州市",
      "type": "餐饮服务;冷饮店;冷饮店",
      "typecode": "050700",
      "adname": "南康区",
      "citycode": "0797",
      "name": "哪吒仙饮(南康区店)",
      "location": "114.763682,25.649118",
      "id": "B0L2BDJKW2"
    },
    {
      "parent": "",
      "address": "干河办事处好义街竹货巷2里8号",
      "distance": "",
      "pcode": "420000",
      "adcode": "429004",
      "pname": "湖北省",
      "cityname": "仙桃市",
      "type": "餐饮服务;中餐厅;特色/地方风味餐厅",
      "typecode": "050118",
      "adname": "仙桃市",
      "citycode": "0728",
      "name": "哪吒烧烤",
      "location": "113.447983,30.377344",
      "id": "B0LGOO7VOD"
    },
    {
      "parent": "",
      "address": "吾悦沔阳里步行街s2-2-2-1-164",
      "distance": "",
      "pcode": "420000",
      "adcode": "429004",
      "pname": "湖北省",
      "cityname": "仙桃市",
      "type": "购物服务;专卖店;儿童用品店",
      "typecode": "061207",
      "adname": "仙桃市",
      "citycode": "0728",
      "name": "哪吒1+1童装",
      "location": "113.448722,30.336098",
      "id": "B0LGOU5J5A"
    },
    {
      "parent": "B02E10MKPR",
      "address": "羊舞岭小区30栋一单元临街门面",
      "distance": "",
      "pcode": "430000",
      "adcode": "430903",
      "pname": "湖南省",
      "cityname": "益阳市",
      "type": "汽车销售;汽车销售;汽车销售",
      "typecode": "020000",
      "adname": "赫山区",
      "citycode": "0737",
      "name": "哪吒仙饮火尖枪城市学院店",
      "location": "112.389715,28.546420",
      "id": "B0J3TUFBFH"
    },
    {
      "parent": "B02E10MKPR",
      "address": "赫山区",
      "distance": "",
      "pcode": "430000",
      "adcode": "430903",
      "pname": "湖南省",
      "cityname": "益阳市",
      "type": "地名地址信息;自然地名;山",
      "typecode": "190203",
      "adname": "赫山区",
      "citycode": "0737",
      "name": "火尖枪",
      "location": "112.387960,28.547437",
      "id": "B0K3YD9B8G"
    },
    {
      "parent": "B0FFGKS67R",
      "address": "桥北一路95号嘉东商业大厦F2层",
      "distance": "",
      "pcode": "440000",
      "adcode": "441802",
      "pname": "广东省",
      "cityname": "清远市",
      "type": "科教文化服务;培训机构;培训机构",
      "typecode": "141400",
      "adname": "清城区",
      "citycode": "0763",
      "name": "哪吒教育城",
      "location": "113.037841,23.715665",
      "id": "B0K0HKK6IF"
    },
    {
      "parent": "",
      "address": "莲塘市场北门旁",
      "distance": "",
      "pcode": "440000",
      "adcode": "441802",
      "pname": "广东省",
      "cityname": "清远市",
      "type": "餐饮服务;中餐厅;特色/地方风味餐厅",
      "typecode": "050118",
      "adname": "清城区",
      "citycode": "0763",
      "name": "哪吒烧烤",
      "location": "113.052980,23.715746",
      "id": "B0L115LJHG"
    },
    {
      "parent": "",
      "address": "大道中二街与清和大道交叉口南140米",
      "distance": "",
      "pcode": "440000",
      "adcode": "441803",
      "pname": "广东省",
      "cityname": "清远市",
      "type": "汽车服务;汽车服务相关;汽车服务相关",
      "typecode": "010000",
      "adname": "清新区",
      "citycode": "0763",
      "name": "哪吒网约车",
      "location": "112.999677,23.733575",
      "id": "B0LGHHTM2O"
    },
    {
      "parent": "",
      "address": "阳城镇文塔路13号内原商业局一楼",
      "distance": "",
      "pcode": "440000",
      "adcode": "441823",
      "pname": "广东省",
      "cityname": "清远市",
      "type": "体育休闲服务;运动场馆;台球厅",
      "typecode": "080113",
      "adname": "阳山县",
      "citycode": "0763",
      "name": "哪吒桌球俱乐部",
      "location": "112.646398,24.475850",
      "id": "B0LAYUXFA8"
    },
    {
      "parent": "",
      "address": "水头三街与水头横街交叉口南60米",
      "distance": "",
      "pcode": "460000",
      "adcode": "460105",
      "pname": "海南省",
      "cityname": "海口市",
      "type": "餐饮服务;冷饮店;冷饮店",
      "typecode": "050700",
      "adname": "秀英区",
      "citycode": "0898",
      "name": "仙饮休闲吧",
      "location": "110.298996,19.985119",
      "id": "B0K1PS9K6J"
    },
    {
      "parent": "",
      "address": "云江路9号",
      "distance": "",
      "pcode": "460000",
      "adcode": "460107",
      "pname": "海南省",
      "cityname": "海口市",
      "type": "餐饮服务;冷饮店;冷饮店",
      "typecode": "050700",
      "adname": "琼山区",
      "citycode": "0898",
      "name": "友仙饮坊",
      "location": "110.469883,19.873783",
      "id": "B0J31RHZP8"
    },
    {
      "parent": "",
      "address": "永安路右侧9号仓",
      "distance": "",
      "pcode": "460000",
      "adcode": "460105",
      "pname": "海南省",
      "cityname": "海口市",
      "type": "汽车销售;汽车销售;汽车销售",
      "typecode": "020000",
      "adname": "秀英区",
      "citycode": "0898",
      "name": "哪吒汽车用户中心",
      "location": "110.270392,19.994720",
      "id": "B0LA5RT9R4"
    },
    {
      "parent": "",
      "address": "海府路与和平南路交叉口西北60米",
      "distance": "",
      "pcode": "460000",
      "adcode": "460108",
      "pname": "海南省",
      "cityname": "海口市",
      "type": "购物服务;专卖店;儿童用品店",
      "typecode": "061207",
      "adname": "美兰区",
      "citycode": "0898",
      "name": "小哪吒午托晚托",
      "location": "110.350520,20.032573",
      "id": "B0I0LCDH0I"
    },
    {
      "parent": "",
      "address": "秋成大道158号(中央公园西地铁站6号口步行150米)龙湖重庆公园天街龙湖重庆公园天街A馆2F层",
      "distance": "",
      "pcode": "500000",
      "adcode": "500105",
      "pname": "重庆市",
      "cityname": "重庆市",
      "type": "汽车销售;汽车销售;汽车销售",
      "typecode": "020000",
      "adname": "两江新区",
      "citycode": "023",
      "name": "哪吒(龙湖重庆公园天街店)",
      "location": "106.574352,29.721802",
      "id": "B0KDXDLS5X"
    },
    {
      "parent": "B001792JIW",
      "address": "观音桥东环路59号附2号星天广场",
      "distance": "",
      "pcode": "500000",
      "adcode": "500105",
      "pname": "重庆市",
      "cityname": "重庆市",
      "type": "汽车销售;汽车销售;汽车销售|汽车维修;汽车维修;汽车维修",
      "typecode": "020000|030000",
      "adname": "两江新区",
      "citycode": "023",
      "name": "哪吒汽车(星天广场店)",
      "location": "106.533975,29.576125",
      "id": "B0L1RLBJB9"
    },
    {
      "parent": "",
      "address": "玉马路与茶花路交叉口东南80米",
      "distance": "",
      "pcode": "500000",
      "adcode": "500108",
      "pname": "重庆市",
      "cityname": "重庆市",
      "type": "餐饮服务;餐饮相关场所;餐饮相关",
      "typecode": "050000",
      "adname": "南岸区",
      "citycode": "023",
      "name": "哪吒肌肤优化中心",
      "location": "106.641275,29.487925",
      "id": "B0LG0R6GAN"
    },
    {
      "parent": "B00178UMEJ",
      "address": "向阳街196号中国人寿大厦F2层",
      "distance": "",
      "pcode": "500000",
      "adcode": "500120",
      "pname": "重庆市",
      "cityname": "重庆市",
      "type": "体育休闲服务;运动场馆;运动场所",
      "typecode": "080100",
      "adname": "璧山区",
      "citycode": "023",
      "name": "哪吒台球(璧山店)",
      "location": "106.231624,29.589046",
      "id": "B0LU1CEJNT"
    },
    {
      "parent": "B001792JIW",
      "address": "观音桥东环路59号附2号星天广场",
      "distance": "",
      "pcode": "500000",
      "adcode": "500105",
      "pname": "重庆市",
      "cityname": "重庆市",
      "type": "生活服务;美容美发店;美容美发店",
      "typecode": "071100",
      "adname": "两江新区",
      "citycode": "023",
      "name": "哪吒美容",
      "location": "106.533882,29.576260",
      "id": "B0L1KHUJWU"
    },
    {
      "parent": "B0017875L1",
      "address": "天宫殿街道龙头寺泰山大道东段56号华宇·北城中央东区",
      "distance": "",
      "pcode": "500000",
      "adcode": "500105",
      "pname": "重庆市",
      "cityname": "重庆市",
      "type": "餐饮服务;中餐厅;特色/地方风味餐厅",
      "typecode": "050118",
      "adname": "两江新区",
      "citycode": "023",
      "name": "哪吒鲜肉烧烤",
      "location": "106.548182,29.602709",
      "id": "B0LA4R9TVH"
    },
    {
      "parent": "B001797LBX",
      "address": "",
      "distance": "",
      "pcode": "500000",
      "adcode": "500105",
      "pname": "重庆市",
      "cityname": "重庆市",
      "type": "生活服务;美容美发店;美容美发店",
      "typecode": "071100",
      "adname": "两江新区",
      "citycode": "023",
      "name": "哪吒肌肤优化中心",
      "location": "106.533448,29.572015",
      "id": "B0LU4CYQBK"
    },
    {
      "parent": "",
      "address": "紫荆路与紫园路交叉口西40米",
      "distance": "",
      "pcode": "500000",
      "adcode": "500105",
      "pname": "重庆市",
      "cityname": "重庆市",
      "type": "汽车销售;汽车销售;汽车销售",
      "typecode": "020000",
      "adname": "两江新区",
      "citycode": "023",
      "name": "哪吒汽车重庆骏荣用户中心",
      "location": "106.532024,29.594495",
      "id": "B0J107F2J6"
    },
    {
      "parent": "",
      "address": "团结路特1号(杨家坪地铁站4号口步行80米)",
      "distance": "",
      "pcode": "500000",
      "adcode": "500107",
      "pname": "重庆市",
      "cityname": "重庆市",
      "type": "生活服务;美容美发店;美容美发店",
      "typecode": "071100",
      "adname": "九龙坡区",
      "citycode": "023",
      "name": "哪吒肌肤优化中心",
      "location": "106.515787,29.509540",
      "id": "B0LBFULMZL"
    },
    {
      "parent": "",
      "address": "云龙大道9号1幢8号",
      "distance": "",
      "pcode": "500000",
      "adcode": "500107",
      "pname": "重庆市",
      "cityname": "重庆市",
      "type": "汽车维修;汽车维修;汽车维修",
      "typecode": "030000",
      "adname": "九龙坡区",
      "citycode": "023",
      "name": "哪吒汽车专修",
      "location": "106.491934,29.500898",
      "id": "B0LU4ZL4N9"
    },
    {
      "parent": "",
      "address": "望江阁东北门旁",
      "distance": "",
      "pcode": "500000",
      "adcode": "500105",
      "pname": "重庆市",
      "cityname": "重庆市",
      "type": "汽车销售;汽车销售;汽车销售",
      "typecode": "020000",
      "adname": "两江新区",
      "citycode": "023",
      "name": "哪吒汽车网约车交付中心",
      "location": "106.565585,29.578942",
      "id": "B0JULRUQK4"
    },
    {
      "parent": "B0FFHPR95O",
      "address": "山茶路70号3号线广场F1层",
      "distance": "",
      "pcode": "500000",
      "adcode": "500105",
      "pname": "重庆市",
      "cityname": "重庆市",
      "type": "生活服务;美容美发店;美容美发店",
      "typecode": "071100",
      "adname": "两江新区",
      "citycode": "023",
      "name": "哪吒肌肤优化中心(狮子平店)",
      "location": "106.549871,29.599700",
      "id": "B0LDT57AT0"
    },
    {
      "parent": "B00178VRRV",
      "address": "珊瑚路6号附7号",
      "distance": "",
      "pcode": "500000",
      "adcode": "500108",
      "pname": "重庆市",
      "cityname": "重庆市",
      "type": "生活服务;美容美发店;美容美发店",
      "typecode": "071100",
      "adname": "南岸区",
      "citycode": "023",
      "name": "哪吒肌肤优化中心(南坪店)",
      "location": "106.568107,29.526067",
      "id": "B0LUM7HLWS"
    },
    {
      "parent": "",
      "address": "重庆花园路街道大石支路1号1栋",
      "distance": "",
      "pcode": "500000",
      "adcode": "500108",
      "pname": "重庆市",
      "cityname": "重庆市",
      "type": "汽车服务;汽车服务相关;汽车服务相关",
      "typecode": "010000",
      "adname": "南岸区",
      "citycode": "023",
      "name": "哪吒汽车服务中心",
      "location": "106.558180,29.506967",
      "id": "B0J3YZCQ0V"
    },
    {
      "parent": "",
      "address": "玉峰山镇环山村",
      "distance": "",
      "pcode": "500000",
      "adcode": "500105",
      "pname": "重庆市",
      "cityname": "重庆市",
      "type": "汽车服务;汽车配件销售;汽车配件销售",
      "typecode": "010800",
      "adname": "两江新区",
      "citycode": "023",
      "name": "哪吒轮毂",
      "location": "106.639328,29.669578",
      "id": "B0I6PSAC3S"
    },
    {
      "parent": "",
      "address": "湾丘路与华福大道中段交叉口西北140米",
      "distance": "",
      "pcode": "500000",
      "adcode": "500104",
      "pname": "重庆市",
      "cityname": "重庆市",
      "type": "汽车销售;汽车销售;汽车销售",
      "typecode": "020000",
      "adname": "大渡口区",
      "citycode": "023",
      "name": "哪吒汽车",
      "location": "106.439225,29.416525",
      "id": "B0LBLRPU5D"
    },
    {
      "parent": "",
      "address": "蔡和路47号附6号",
      "distance": "",
      "pcode": "500000",
      "adcode": "500105",
      "pname": "重庆市",
      "cityname": "重庆市",
      "type": "体育休闲服务;娱乐场所;棋牌室",
      "typecode": "080306",
      "adname": "两江新区",
      "citycode": "023",
      "name": "哪吒自助棋牌馆",
      "location": "106.495657,29.744273",
      "id": "B0LA2LQL34"
    },
    {
      "parent": "",
      "address": "凯歌路与双湖支路交叉口西40米(双龙地铁站1号口旁)",
      "distance": "",
      "pcode": "500000",
      "adcode": "500105",
      "pname": "重庆市",
      "cityname": "重庆市",
      "type": "生活服务;美容美发店;美容美发店",
      "typecode": "071100",
      "adname": "两江新区",
      "citycode": "023",
      "name": "哪吒肌肤优化中心",
      "location": "106.619210,29.698206",
      "id": "B0LRG1U3KO"
    },
    {
      "parent": "",
      "address": "两港大道207号(长河地铁站2A口步行250米)",
      "distance": "",
      "pcode": "500000",
      "adcode": "500105",
      "pname": "重庆市",
      "cityname": "重庆市",
      "type": "公司企业;公司;公司",
      "typecode": "170200",
      "adname": "两江新区",
      "citycode": "023",
      "name": "哪吒轮毂",
      "location": "106.629118,29.671925",
      "id": "B0FFKSM1OB"
    },
    {
      "parent": "B00178X50V",
      "address": "双凤桥街道金航路1号金港国际1F(汉堡王旁)",
      "distance": "",
      "pcode": "500000",
      "adcode": "500105",
      "pname": "重庆市",
      "cityname": "重庆市",
      "type": "风景名胜;公园广场;公园|体育休闲服务;体育休闲服务场所;体育休闲服务场所",
      "typecode": "110101|080000",
      "adname": "两江新区",
      "citycode": "023",
      "name": "重庆哪吒赶海公园(喜地山·金港国际店)",
      "location": "106.633004,29.715589",
      "id": "B0JRVAKIEC"
    },
    {
      "parent": "",
      "address": "福湾路与福庭路交叉口南40米",
      "distance": "",
      "pcode": "500000",
      "adcode": "500104",
      "pname": "重庆市",
      "cityname": "重庆市",
      "type": "生活服务;美容美发店;美容美发店",
      "typecode": "071100",
      "adname": "大渡口区",
      "citycode": "023",
      "name": "哪吒肌肤优化中心",
      "location": "106.437125,29.408875",
      "id": "B0L1H9XUE2"
    },
    {
      "parent": "",
      "address": "沿河西路18号附73号",
      "distance": "",
      "pcode": "500000",
      "adcode": "500106",
      "pname": "重庆市",
      "cityname": "重庆市",
      "type": "餐饮服务;中餐厅;中餐厅",
      "typecode": "050100",
      "adname": "沙坪坝区",
      "citycode": "023",
      "name": "哪吒烤肉饭【陈家桥店】",
      "location": "106.330720,29.616237",
      "id": "B0LGB54JD8"
    },
    {
      "parent": "B0G2A9CO0J",
      "address": "中山路街道凤栖支路39号",
      "distance": "",
      "pcode": "500000",
      "adcode": "500118",
      "pname": "重庆市",
      "cityname": "重庆市",
      "type": "生活服务;生活服务场所;生活服务场所",
      "typecode": "070000",
      "adname": "永川区",
      "citycode": "023",
      "name": "哪吒潮牌",
      "location": "105.939656,29.323915",
      "id": "B0LG6CIFTM"
    },
    {
      "parent": "",
      "address": "巴云路110号-117号",
      "distance": "",
      "pcode": "500000",
      "adcode": "500113",
      "pname": "重庆市",
      "cityname": "重庆市",
      "type": "汽车服务;汽车养护/装饰;汽车养护",
      "typecode": "010400",
      "adname": "巴南区",
      "citycode": "023",
      "name": "哪吒养车",
      "location": "106.509219,29.443380",
      "id": "B0KDOC8B8B"
    },
    {
      "parent": "",
      "address": "巴渝大道288号14-3-20",
      "distance": "",
      "pcode": "500000",
      "adcode": "500152",
      "pname": "重庆市",
      "cityname": "重庆市",
      "type": "体育休闲服务;体育休闲服务场所;体育休闲服务场所",
      "typecode": "080000",
      "adname": "潼南区",
      "citycode": "023",
      "name": "哪吒游戏体验店",
      "location": "105.840932,30.194129",
      "id": "B0LB2MPKIS"
    },
    {
      "parent": "",
      "address": "大路街道大沟村1组186号2栋",
      "distance": "",
      "pcode": "500000",
      "adcode": "500120",
      "pname": "重庆市",
      "cityname": "重庆市",
      "type": "科教文化服务;培训机构;培训机构",
      "typecode": "141400",
      "adname": "璧山区",
      "citycode": "023",
      "name": "重庆哪吒幸福成长基地",
      "location": "106.170766,29.711877",
      "id": "B0LDZCN3H6"
    },
    {
      "parent": "B001704387",
      "address": "胜利路106号",
      "distance": "",
      "pcode": "500000",
      "adcode": "500118",
      "pname": "重庆市",
      "cityname": "重庆市",
      "type": "汽车销售;汽车销售;汽车销售",
      "typecode": "020000",
      "adname": "永川区",
      "citycode": "023",
      "name": "哪吒足迹",
      "location": "105.891289,29.353591",
      "id": "B0K36RFBWY"
    },
    {
      "parent": "",
      "address": "石院街56号",
      "distance": "",
      "pcode": "500000",
      "adcode": "500152",
      "pname": "重庆市",
      "cityname": "重庆市",
      "type": "汽车销售;汽车销售;汽车销售|购物服务;购物相关场所;购物相关场所",
      "typecode": "020000|060000",
      "adname": "潼南区",
      "citycode": "023",
      "name": "哪咤汽车金彭汽车潼南店",
      "location": "105.808215,30.181580",
      "id": "B0JDFRXV6R"
    },
    {
      "parent": "",
      "address": "白龙街与大石路交叉口东20米",
      "distance": "",
      "pcode": "500000",
      "adcode": "500110",
      "pname": "重庆市",
      "cityname": "重庆市",
      "type": "购物服务;综合市场;蔬菜市场",
      "typecode": "060705",
      "adname": "綦江区",
      "citycode": "023",
      "name": "哪吒蔬果冻品批发配送",
      "location": "106.654621,29.035597",
      "id": "B0KU44Q40A"
    },
    {
      "parent": "",
      "address": "乌江西路178号附16号",
      "distance": "",
      "pcode": "500000",
      "adcode": "500243",
      "pname": "重庆市",
      "cityname": "重庆市",
      "type": "餐饮服务;餐饮相关场所;餐饮相关",
      "typecode": "050000",
      "adname": "彭水苗族土家族自治县",
      "citycode": "023",
      "name": "哪吒烧烤",
      "location": "108.159804,29.296809",
      "id": "B0LGSO8VZ1"
    },
    {
      "parent": "",
      "address": "夔州西路266号亿丰汽贸城北大门旁",
      "distance": "",
      "pcode": "500000",
      "adcode": "500236",
      "pname": "重庆市",
      "cityname": "重庆市",
      "type": "体育休闲服务;运动场馆;台球厅",
      "typecode": "080113",
      "adname": "奉节县",
      "citycode": "023",
      "name": "哪吒台球",
      "location": "109.429587,31.025612",
      "id": "B0LGX7BRVM"
    },
    {
      "parent": "",
      "address": "高唐街道广东中路77号",
      "distance": "",
      "pcode": "500000",
      "adcode": "500237",
      "pname": "重庆市",
      "cityname": "重庆市",
      "type": "体育休闲服务;休闲场所;游乐场",
      "typecode": "080501",
      "adname": "巫山县",
      "citycode": "023",
      "name": "小哪吒亲子主题乐园",
      "location": "109.883680,31.079604",
      "id": "B0JKDZ39YD"
    },
    {
      "parent": "",
      "address": "仙源街道北滨路9号仙源广场2号附2-3号",
      "distance": "",
      "pcode": "510000",
      "adcode": "511503",
      "pname": "四川省",
      "cityname": "宜宾市",
      "type": "餐饮服务;快餐厅;茶餐厅",
      "typecode": "050305",
      "adname": "南溪区",
      "citycode": "0831",
      "name": "哪吒茶餐厅(仙源广场店)",
      "location": "104.965863,28.821694",
      "id": "B0LAFAJOQ3"
    },
    {
      "parent": "B0FFH3JQ0T",
      "address": "钻石城二楼",
      "distance": "",
      "pcode": "510000",
      "adcode": "511503",
      "pname": "四川省",
      "cityname": "宜宾市",
      "type": "体育休闲服务;休闲场所;游乐场",
      "typecode": "080501",
      "adname": "南溪区",
      "citycode": "0831",
      "name": "小木马哪吒潮玩乐园(钻石城店)",
      "location": "104.968587,28.832633",
      "id": "B0G3FCLI8Q"
    },
    {
      "parent": "B0FFJ5FSHZ",
      "address": "临港经开区护国路二号白沙翡翠城26栋一层6号",
      "distance": "",
      "pcode": "510000",
      "adcode": "511502",
      "pname": "四川省",
      "cityname": "宜宾市",
      "type": "餐饮服务;中餐厅;特色/地方风味餐厅",
      "typecode": "050118",
      "adname": "翠屏区",
      "citycode": "0831",
      "name": "哪吒烧烤",
      "location": "104.679072,28.788087",
      "id": "B0LUXMN5WH"
    },
    {
      "parent": "",
      "address": "屏山镇A18-03地块M03号门面",
      "distance": "",
      "pcode": "510000",
      "adcode": "511529",
      "pname": "四川省",
      "cityname": "宜宾市",
      "type": "汽车销售;汽车销售;汽车销售",
      "typecode": "020000",
      "adname": "屏山县",
      "citycode": "0831",
      "name": "哪吒足迹",
      "location": "104.350577,28.828879",
      "id": "B0L1XSQI8Y"
    },
    {
      "parent": "",
      "address": "宜威路",
      "distance": "",
      "pcode": "510000",
      "adcode": "511504",
      "pname": "四川省",
      "cityname": "宜宾市",
      "type": "风景名胜;风景名胜;风景名胜",
      "typecode": "110200",
      "adname": "叙州区",
      "citycode": "0831",
      "name": "哪吒岛",
      "location": "104.681868,28.737384",
      "id": "B0L3PSFUGU"
    },
    {
      "parent": "",
      "address": "南广镇七星社区村14组",
      "distance": "",
      "pcode": "510000",
      "adcode": "511504",
      "pname": "四川省",
      "cityname": "宜宾市",
      "type": "风景名胜;风景名胜相关;旅游景点",
      "typecode": "110000",
      "adname": "叙州区",
      "citycode": "0831",
      "name": "哪吒溪谷",
      "location": "104.676809,28.732349",
      "id": "B0FFIKMT4V"
    },
    {
      "parent": "",
      "address": "七星山社区3组10号",
      "distance": "",
      "pcode": "510000",
      "adcode": "511504",
      "pname": "四川省",
      "cityname": "宜宾市",
      "type": "体育休闲服务;休闲场所;采摘园",
      "typecode": "080503",
      "adname": "叙州区",
      "citycode": "0831",
      "name": "七星山哪吒仙桃采摘园",
      "location": "104.667793,28.739461",
      "id": "B0LDHZB4Q1"
    },
    {
      "parent": "",
      "address": "西郊街道翠屏山游客中心",
      "distance": "",
      "pcode": "510000",
      "adcode": "511502",
      "pname": "四川省",
      "cityname": "宜宾市",
      "type": "体育休闲服务;休闲场所;游乐场",
      "typecode": "080501",
      "adname": "翠屏区",
      "citycode": "0831",
      "name": "哪吒欢乐世界",
      "location": "104.600460,28.762984",
      "id": "B0I0ZHDAJQ"
    },
    {
      "parent": "",
      "address": "曲靖开发区翠峰街道朝阳社区外滩4幢1层1-2号",
      "distance": "",
      "pcode": "530000",
      "adcode": "530302",
      "pname": "云南省",
      "cityname": "曲靖市",
      "type": "餐饮服务;冷饮店;冷饮店",
      "typecode": "050700",
      "adname": "麒麟区",
      "citycode": "0874",
      "name": "哪吒仙饮",
      "location": "103.765708,25.519393",
      "id": "B0L1FHX20S"
    },
    {
      "parent": "B0GKOU8V23",
      "address": "海鑫国际商业广场二楼202哪吒新派农贸市场火锅",
      "distance": "",
      "pcode": "540000",
      "adcode": "540103",
      "pname": "西藏自治区",
      "cityname": "拉萨市",
      "type": "餐饮服务;中餐厅;火锅店",
      "typecode": "050117",
      "adname": "堆龙德庆区",
      "citycode": "0891",
      "name": "哪吒新派农贸市场火锅",
      "location": "91.017897,29.638303",
      "id": "B0LDALMBQ3"
    },
    {
      "parent": "B03CB10453",
      "address": "经二路紫恒帝景56-24",
      "distance": "",
      "pcode": "630000",
      "adcode": "630105",
      "pname": "青海省",
      "cityname": "西宁市",
      "type": "餐饮服务;冷饮店;冷饮店",
      "typecode": "050700",
      "adname": "城北区",
      "citycode": "0971",
      "name": "哪吒仙饮火尖枪奶茶店",
      "location": "101.749869,36.680332",
      "id": "B0J3LZ8SSV"
    },
    {
      "parent": "B0FFM9BPHI",
      "address": "正源南街建发悠阅城",
      "distance": "",
      "pcode": "640000",
      "adcode": "640106",
      "pname": "宁夏回族自治区",
      "cityname": "银川市",
      "type": "体育休闲服务;影剧院;电影院",
      "typecode": "080601",
      "adname": "金凤区",
      "citycode": "0951",
      "name": "博纳国际影城(银川悠阅城店)",
      "location": "106.238200,38.428238",
      "id": "B0JDV5RH4O"
    },
    {
      "parent": "",
      "address": "玉皇阁南街216号院内1幢2楼南1号",
      "distance": "",
      "pcode": "640000",
      "adcode": "640104",
      "pname": "宁夏回族自治区",
      "cityname": "银川市",
      "type": "餐饮服务;中餐厅;中餐厅",
      "typecode": "050100",
      "adname": "兴庆区",
      "citycode": "0951",
      "name": "哪吒小龙虾.1186斤小龙虾",
      "location": "106.281020,38.456489",
      "id": "B0LDURGJT2"
    },
    {
      "parent": "",
      "address": "德成东路2号(哪吒汽车银川方越用户中心旁边)",
      "distance": "",
      "pcode": "640000",
      "adcode": "640122",
      "pname": "宁夏回族自治区",
      "cityname": "银川市",
      "type": "汽车销售;汽车销售;汽车销售",
      "typecode": "020000",
      "adname": "贺兰县",
      "citycode": "0951",
      "name": "宁德时代",
      "location": "106.315407,38.522824",
      "id": "B0LDOA5PHG"
    },
    {
      "parent": "",
      "address": "上海街与窝打老道交叉口北40米",
      "distance": "",
      "pcode": "810000",
      "adcode": "810005",
      "pname": "香港特别行政区",
      "cityname": "香港特别行政区",
      "type": "政府机构及社会团体;社会团体;社会团体相关",
      "typecode": "130400",
      "adname": "油尖旺区",
      "citycode": "1852",
      "name": "澳港柿山结义堂哪吒庙办事处",
      "location": "114.174556,22.310432",
      "id": "B073C033HD"
    },
    {
      "parent": "",
      "address": "哪咤庙斜巷",
      "distance": "",
      "pcode": "820000",
      "adcode": "820004",
      "pname": "澳门特别行政区",
      "cityname": "澳门特别行政区",
      "type": "风景名胜;风景名胜;寺庙道观",
      "typecode": "110205",
      "adname": "大堂区",
      "citycode": "1853",
      "name": "哪咤古庙",
      "location": "113.547452,22.192590",
      "id": "B073D00JE4"
    },
    {
      "parent": "B073D00ASB",
      "address": "大三巴斜巷6号",
      "distance": "",
      "pcode": "820000",
      "adcode": "820002",
      "pname": "澳门特别行政区",
      "cityname": "澳门特别行政区",
      "type": "风景名胜;风景名胜;寺庙道观",
      "typecode": "110205",
      "adname": "花王堂区",
      "citycode": "1853",
      "name": "哪咤庙",
      "location": "113.545743,22.194831",
      "id": "B073D00ASC"
    },
    {
      "parent": "",
      "address": "大堂区",
      "distance": "",
      "pcode": "820000",
      "adcode": "820004",
      "pname": "澳门特别行政区",
      "cityname": "澳门特别行政区",
      "type": "地名地址信息;交通地名;道路名",
      "typecode": "190301",
      "adname": "大堂区",
      "citycode": "1853",
      "name": "哪咤庙斜巷",
      "location": "113.547284,22.192397",
      "id": "B0FFGQLE2Z"
    },
    {
      "parent": "",
      "address": "新明街与富丰南路交叉口西南360米",
      "distance": "",
      "pcode": "710000",
      "adcode": "710000",
      "pname": "台湾省",
      "cityname": "台湾省",
      "type": "风景名胜;风景名胜;教堂",
      "typecode": "110206",
      "adname": "台湾省",
      "citycode": "1886",
      "name": "桃园哪吒府",
      "location": "121.076126,24.927005",
      "id": "B0L0FKTU8N"
    },
    {
      "parent": "",
      "address": "",
      "distance": "",
      "pcode": "710000",
      "adcode": "710000",
      "pname": "台湾省",
      "cityname": "台湾省",
      "type": "风景名胜;风景名胜;回教寺",
      "typecode": "110207",
      "adname": "台湾省",
      "citycode": "1886",
      "name": "哪吒太子会",
      "location": "120.554011,23.724722",
      "id": "B0L029PSG2"
    },
    {
      "parent": "",
      "address": "654,Taiwan,Yunlin County,Sihu Township,196号",
      "distance": "",
      "pcode": "710000",
      "adcode": "710000",
      "pname": "台湾省",
      "cityname": "台湾省",
      "type": "汽车销售;汽车销售;汽车销售",
      "typecode": "020000",
      "adname": "台湾省",
      "citycode": "1886",
      "name": "哪吒闹东海",
      "location": "120.155791,23.625892",
      "id": "B0K2N51M5L"
    }
  ]
}